{
    "1044796652218215": {
        "longitude": 72.951579093933,
        "latitude": 19.183860733393,
        "likes": 964,
        "name": "Barbeque Nation",
        "categories": [
            "Barbecue Restaurant",
            "Indian Restaurant"
        ],
        "checkins": 6986
    },
    "356316597737408": {
        "longitude": 73.010351708536,
        "latitude": 19.097482895464,
        "likes": 164,
        "name": "Bonkode Gaon",
        "categories": [
            "Local Business"
        ],
        "checkins": 8928
    },
    "606054139454880": {
        "longitude": 73.000324022226,
        "latitude": 19.064750045998,
        "likes": 1436,
        "name": "Rude Lounge - Vashi",
        "categories": [
            "Lounge",
            "Beer Garden"
        ],
        "checkins": 17244
    },
    "474249825923862": {
        "longitude": 72.94955,
        "latitude": 19.1667357,
        "likes": 73,
        "name": "Mehul Cinema, Mulund (West)",
        "categories": [
            "Movie Theater"
        ],
        "checkins": 2936
    },
    "105369079497716": {
        "longitude": 72.91,
        "latitude": 19.144,
        "likes": 161,
        "name": "Vihar Lake",
        "categories": [
            "Lake"
        ],
        "checkins": 2502
    },
    "80043614210": {
        "longitude": 72.907359391518,
        "latitude": 19.120172376562,
        "likes": 72618,
        "name": "Cafe Mangii",
        "categories": [
            "Italian Restaurant",
            "Cafe"
        ],
        "checkins": 13029
    },
    "174441552673754": {
        "longitude": 73.008272510045,
        "latitude": 19.142082266558,
        "likes": 155,
        "name": "Rabale Midc",
        "categories": [
            "Commercial & Industrial",
            "Business Center"
        ],
        "checkins": 4848
    },
    "173542612692835": {
        "longitude": 73.00840679018,
        "latitude": 19.072475523349,
        "likes": 817,
        "name": "Bhagat Tarachand",
        "categories": [
            "Indian Restaurant"
        ],
        "checkins": 12706
    },
    "163291107057571": {
        "longitude": 73.017023084451,
        "latitude": 19.109897820852,
        "likes": 877,
        "name": "Millenium Business Park (MBP)",
        "categories": [
            "Business Service"
        ],
        "checkins": 23757
    },
    "525855167425721": {
        "longitude": 72.99663638,
        "latitude": 19.17712424,
        "likes": 51,
        "name": "Digha Navimumbai",
        "categories": [
            "Local Business"
        ],
        "checkins": 8619
    },
    "221509481285805": {
        "longitude": 72.943758698125,
        "latitude": 19.167275200625,
        "likes": 697,
        "name": "Mantra gym",
        "categories": [
            "Gym/Physical Fitness Center"
        ],
        "checkins": 3243
    },
    "1619675394966846": {
        "longitude": 72.9407883,
        "latitude": 19.1176796,
        "likes": 136,
        "name": "Vikhroli Chi Durgamata",
        "categories": [
            "Hindu Temple"
        ],
        "checkins": 2646
    },
    "689864974431913": {
        "longitude": 72.90688783,
        "latitude": 19.11523646,
        "likes": 618,
        "name": "Bhimashankar Trek",
        "categories": [
            "Wildlife Sanctuary",
            "Campground",
            "Tour Agency"
        ],
        "checkins": 8371
    },
    "189557157744356": {
        "longitude": 72.913443300268,
        "latitude": 19.122652705358,
        "likes": 837,
        "name": "Hakone Go-Karting,Hiranandani.",
        "categories": [
            "Go-Kart Track"
        ],
        "checkins": 11130
    },
    "352130221559858": {
        "longitude": 73.028284656,
        "latitude": 19.165134462,
        "likes": 276,
        "name": "M M Valley Mumbra",
        "categories": [
            "Local Business"
        ],
        "checkins": 18952
    },
    "342569466082554": {
        "longitude": 72.90791,
        "latitude": 19.11991,
        "likes": 333,
        "name": "Madeira & Mime",
        "categories": [
            "Bar",
            "Gastropub",
            "Cafe"
        ],
        "checkins": 645
    },
    "209094715787504": {
        "longitude": 72.9132439866,
        "latitude": 19.1240000173,
        "likes": 384,
        "name": "Mumbai Cst International Airport",
        "categories": [
            "Airport Terminal"
        ],
        "checkins": 4960
    },
    "234237936710514": {
        "longitude": 72.90895,
        "latitude": 19.12365,
        "likes": 21998,
        "name": "The Mini Punjab Group",
        "categories": [
            "Caterer",
            "Bar & Grill"
        ],
        "checkins": 17792
    },
    "108251385863534": {
        "longitude": 72.91,
        "latitude": 19.13,
        "likes": 1327,
        "name": "Powai Lake",
        "categories": [
            "Lake"
        ],
        "checkins": 48595
    },
    "261299010566918": {
        "longitude": 73.000587996667,
        "latitude": 19.162183617619,
        "likes": 1099,
        "name": "Accenture, Mindspace-Airoli",
        "categories": [
            "Corporate Office"
        ],
        "checkins": 5575
    },
    "318722328225853": {
        "longitude": 72.98270814,
        "latitude": 19.06571253,
        "likes": 83,
        "name": "Sagar Vihar, Vashi, Navi-Mumbai",
        "categories": [
            "Public Square / Plaza"
        ],
        "checkins": 6383
    },
    "275063125893949": {
        "longitude": 73.007088708088,
        "latitude": 19.084572934779,
        "likes": 492,
        "name": "Cinemax Multiplex Theatre, City Center Mall, Palm Beach Road, Vashi",
        "categories": [
            "Performance Art Theatre"
        ],
        "checkins": 26119
    },
    "1040380539325471": {
        "longitude": 72.93887856,
        "latitude": 19.18054369,
        "likes": 158,
        "name": "Cypress Garden, Mulund",
        "categories": [
            "Recreation & Fitness"
        ],
        "checkins": 7230
    },
    "208606685860085": {
        "longitude": 73.006536907818,
        "latitude": 19.113892860866,
        "likes": 331,
        "name": "Ghansoli Dargah",
        "categories": [
            "Mosque"
        ],
        "checkins": 4559
    },
    "255266991178372": {
        "longitude": 72.997103538462,
        "latitude": 19.07937155107,
        "likes": 460,
        "name": "Sector 9 (Vashi)",
        "categories": [
            "Market"
        ],
        "checkins": 18792
    },
    "206065826085857": {
        "longitude": 72.951578565264,
        "latitude": 19.183575516949,
        "likes": 2134,
        "name": "R Mall",
        "categories": [
            "Performance Art Theatre"
        ],
        "checkins": 21230
    },
    "474528219225833": {
        "longitude": 73.000579936125,
        "latitude": 19.065683345706,
        "likes": 4713,
        "name": "Soy Street",
        "categories": [
            "Asian Restaurant"
        ],
        "checkins": 9924
    },
    "799270343533342": {
        "longitude": 72.99997,
        "latitude": 19.1636099,
        "likes": 5394,
        "name": "Barworks",
        "categories": [
            "Lounge",
            "Bar & Grill"
        ],
        "checkins": 5159
    },
    "598588193524074": {
        "longitude": 73.003860126618,
        "latitude": 19.163270128348,
        "likes": 394,
        "name": "Here Solutions Pvt. Ltd.",
        "categories": [
            "Business Service"
        ],
        "checkins": 3215
    },
    "145602298846498": {
        "longitude": 72.916208078954,
        "latitude": 19.099659304931,
        "likes": 414,
        "name": "Rajdhani, R City Mall",
        "categories": [
            "Coffee Shop"
        ],
        "checkins": 9180
    },
    "215489931849692": {
        "longitude": 72.934077388,
        "latitude": 19.130579278,
        "likes": 1060,
        "name": "Kanjurmarg, Mumbai, Maharashtra",
        "categories": [
            "Landmark & Historical Place"
        ],
        "checkins": 9342
    },
    "476759645861315": {
        "longitude": 72.99997,
        "latitude": 19.1636099,
        "likes": 2228,
        "name": "Zayna - Uber Dining",
        "categories": [
            "Buffet Restaurant"
        ],
        "checkins": 1618
    },
    "487955254709226": {
        "longitude": 73.00402,
        "latitude": 19.1052399,
        "likes": 2055,
        "name": "The Moto Hub - Royal Enfield Accessories Store",
        "categories": [
            "Shopping/Retail",
            "Motorcycle Dealership"
        ],
        "checkins": 41
    },
    "174839249248697": {
        "longitude": 73.0044335365,
        "latitude": 19.0886408583,
        "likes": 171,
        "name": "Palm Beach Road, Navi Mumbai",
        "categories": [
            "Highway",
            "Hotel & Lodging"
        ],
        "checkins": 4734
    },
    "1024273104286075": {
        "longitude": 72.9541502,
        "latitude": 19.1691953,
        "likes": 35,
        "name": "Samna Yuva Prathishthan",
        "categories": [
            "Meeting Room"
        ],
        "checkins": 3184
    },
    "1391266127801907": {
        "longitude": 72.914693785417,
        "latitude": 19.13205442875,
        "likes": 358,
        "name": "Convocation Hall, IIT Bombay",
        "categories": [
            "Education"
        ],
        "checkins": 6346
    },
    "1495062390807212": {
        "longitude": 72.911767,
        "latitude": 19.118986,
        "likes": 965,
        "name": "Hiranandani Gardens, Mumbai",
        "categories": [
            "Public Service",
            "Landmark & Historical Place"
        ],
        "checkins": 33062
    },
    "134978353247686": {
        "longitude": 72.916634191563,
        "latitude": 19.120403698052,
        "likes": 1725,
        "name": "IBS Mumbai",
        "categories": [
            "Brand"
        ],
        "checkins": 18536
    },
    "244835668967004": {
        "longitude": 72.913560784077,
        "latitude": 19.102917644704,
        "likes": 474,
        "name": ";) Vikhroli Parksite",
        "categories": [
            "Park"
        ],
        "checkins": 37570
    },
    "1663248257325487": {
        "longitude": 73.01867,
        "latitude": 19.1791899,
        "likes": 690,
        "name": "Kings Lal Kila",
        "categories": [
            "Indian Chinese Restaurant",
            "Hookah Lounge"
        ],
        "checkins": 1623
    },
    "204879162907214": {
        "longitude": 72.953810107899,
        "latitude": 19.18444704586,
        "likes": 295,
        "name": "Mulund Checknaka",
        "categories": [
            "Restaurant",
            "Highway"
        ],
        "checkins": 8898
    },
    "235632896513608": {
        "longitude": 72.992312741723,
        "latitude": 19.161951041322,
        "likes": 140,
        "name": "Airoli Koliwada",
        "categories": [
            "Local Business"
        ],
        "checkins": 3758
    },
    "1745108575765985": {
        "longitude": 72.91278898716,
        "latitude": 19.092648179452,
        "likes": 3894,
        "name": "Vpledge Delivery",
        "categories": [
            "Workplace & Office",
            "Local Service"
        ],
        "checkins": 270
    },
    "196955990384648": {
        "longitude": 72.91734,
        "latitude": 19.1213799,
        "likes": 13,
        "name": "Gaur Exports",
        "categories": [
            "Company"
        ],
        "checkins": 1429
    },
    "547230472071194": {
        "longitude": 72.921290482143,
        "latitude": 19.102251976429,
        "likes": 417,
        "name": "Capgemini, M6, Godrej It Park",
        "categories": [
            "Corporate Office"
        ],
        "checkins": 3628
    },
    "1555740778043895": {
        "longitude": 72.94331,
        "latitude": 19.17146,
        "likes": 969,
        "name": "Royal Treat Sip and Dine",
        "categories": [
            "Soup Restaurant"
        ],
        "checkins": 3216
    },
    "424779470891027": {
        "longitude": 72.937363810079,
        "latitude": 19.166578442905,
        "likes": 3401,
        "name": "PVR Cinemas, Mulund",
        "categories": [
            "Movie Theater",
            "Shopping Mall"
        ],
        "checkins": 69238
    },
    "165357283519337": {
        "longitude": 72.938626962846,
        "latitude": 19.146556032896,
        "likes": 973,
        "name": "Dreams Complex",
        "categories": [
            "Public Services & Government"
        ],
        "checkins": 11015
    },
    "305441109614905": {
        "longitude": 72.90851,
        "latitude": 19.0852,
        "likes": 139,
        "name": "Neelyog, Inox",
        "categories": [
            "Movie Theater"
        ],
        "checkins": 9641
    },
    "1057687667630878": {
        "longitude": 72.9054867575,
        "latitude": 19.11471646875,
        "likes": 156,
        "name": "Hiranandani Garden Powai",
        "categories": [
            "Medical & Health",
            "Residence"
        ],
        "checkins": 9787
    },
    "247328438707164": {
        "longitude": 72.966814041138,
        "latitude": 19.183333813808,
        "likes": 4929,
        "name": "Abhinay Katta",
        "categories": [
            "Movie Theater",
            "Movie/Television Studio",
            "Non-Profit Organization"
        ],
        "checkins": 1277
    },
    "262683133747981": {
        "longitude": 72.948857174213,
        "latitude": 19.173649997333,
        "likes": 913,
        "name": "Kalidas Natya Mandir, Mulund West",
        "categories": [
            "Performing Arts School"
        ],
        "checkins": 16880
    },
    "175685626161626": {
        "longitude": 73.010650401985,
        "latitude": 19.090491971756,
        "likes": 157,
        "name": "3 Wise Monkeys",
        "categories": [
            "Sports Bar"
        ],
        "checkins": 2496
    },
    "547917802029121": {
        "longitude": 72.91554996,
        "latitude": 19.09104325,
        "likes": 15,
        "name": "\u0918\u093e\u091f\u0915\u094b\u092a\u0930",
        "categories": [
            "Local Business"
        ],
        "checkins": 1724
    },
    "1637300113203149": {
        "longitude": 73.0049664,
        "latitude": 19.0817647,
        "likes": 1286,
        "name": "The Food Studio",
        "categories": [
            "Bar & Grill",
            "Bar"
        ],
        "checkins": 11946
    },
    "447952958550941": {
        "longitude": 73.002599288026,
        "latitude": 19.162616623517,
        "likes": 533,
        "name": "Syntel. Mindspace, Airoli",
        "categories": [
            "Corporate Office"
        ],
        "checkins": 4315
    },
    "225020400880556": {
        "longitude": 72.90933467376,
        "latitude": 19.07971361008,
        "likes": 442,
        "name": "R Odeon, Ghatkopar (E)",
        "categories": [
            "Other"
        ],
        "checkins": 23230
    },
    "569853476459575": {
        "longitude": 72.937064797528,
        "latitude": 19.146247277556,
        "likes": 782,
        "name": "Carnival Cinemas Bhandup Mumbai",
        "categories": [
            "Movie Theater"
        ],
        "checkins": 34690
    },
    "343909205713409": {
        "longitude": 72.90986779491,
        "latitude": 19.116476172531,
        "likes": 2316,
        "name": "Sigree Global Grill",
        "categories": [
            "Asian Restaurant"
        ],
        "checkins": 44950
    },
    "448625825184268": {
        "longitude": 72.992050989,
        "latitude": 19.1489220152,
        "likes": 920,
        "name": "Airoli, Mumbai",
        "categories": [
            "Business"
        ],
        "checkins": 82596
    },
    "376488595728110": {
        "longitude": 72.93504,
        "latitude": 19.13506,
        "likes": 161,
        "name": "Datar colony Bhandup east",
        "categories": [
            "Residence"
        ],
        "checkins": 5168
    },
    "1057096191002085": {
        "longitude": 72.950890554286,
        "latitude": 19.183730062024,
        "likes": 36,
        "name": "Urban Tadka",
        "categories": [
            "Indian Restaurant"
        ],
        "checkins": 2664
    },
    "1448422528712995": {
        "longitude": 72.916348292973,
        "latitude": 19.125092732162,
        "likes": 768,
        "name": "IIT Powai,Mumbai",
        "categories": [
            "College & University",
            "Restaurant",
            "School"
        ],
        "checkins": 17172
    },
    "153799618152216": {
        "longitude": 72.91424368,
        "latitude": 19.118378986,
        "likes": 102,
        "name": "MTNL CETTM - Hiranandani Gardens, Powai - Mumbai",
        "categories": [
            "Workplace & Office"
        ],
        "checkins": 2522
    },
    "149881571724882": {
        "longitude": 72.9909324646,
        "latitude": 19.178976529554,
        "likes": 610570,
        "name": "Capgemini India",
        "categories": [
            "Advertising/Marketing Service"
        ],
        "checkins": 1388
    },
    "121309971355382": {
        "longitude": 72.9501703,
        "latitude": 19.1709174,
        "likes": 639,
        "name": "Bombay Exhibition Centre (Nesco)",
        "categories": [
            "Event"
        ],
        "checkins": 6837
    },
    "112181928941217": {
        "longitude": 72.9575,
        "latitude": 19.163,
        "likes": 962,
        "name": "V. G. Vaze College of Arts, Science and Commerce",
        "categories": [
            "Arts & Entertainment"
        ],
        "checkins": 3650
    },
    "253152871411037": {
        "longitude": 72.944608521656,
        "latitude": 19.161507561035,
        "likes": 6619,
        "name": "The Food Studio",
        "categories": [
            "Diner",
            "Bar & Grill"
        ],
        "checkins": 25270
    },
    "101646323249518": {
        "longitude": 72.940047448333,
        "latitude": 19.180606848333,
        "likes": 5897,
        "name": "Cypress mulund",
        "categories": [
            "Public Services & Government",
            "Men's Clothing Store",
            "Foodservice Distributor"
        ],
        "checkins": 14523
    },
    "137623902990922": {
        "longitude": 73.023510713077,
        "latitude": 19.174333786154,
        "likes": 702,
        "name": "Amrut Nagar (Mumbra)",
        "categories": [
            "Local Business"
        ],
        "checkins": 35793
    },
    "244200102327943": {
        "longitude": 73.0066163361,
        "latitude": 19.1183204606,
        "likes": 212,
        "name": "Mcdonalds ,Ghansoli",
        "categories": [
            "Burger Restaurant"
        ],
        "checkins": 6614
    },
    "101795669960590": {
        "longitude": 72.99871485,
        "latitude": 19.101599875,
        "likes": 17,
        "name": "Koperkhairane Sector 17 Navi Mumbai",
        "categories": [
            "Church"
        ],
        "checkins": 2572
    },
    "545252475589814": {
        "longitude": 72.9984436,
        "latitude": 19.1465302,
        "likes": 5144,
        "name": "A2V Softech Web Creative Hub LLP.",
        "categories": [
            "Web Designer"
        ],
        "checkins": 3745
    },
    "304087959955815": {
        "longitude": 72.913505,
        "latitude": 19.1239807,
        "likes": 15,
        "name": "Indigo Deli, Powai",
        "categories": [
            "Deli"
        ],
        "checkins": 546
    },
    "1306737082685554": {
        "longitude": 72.99147298,
        "latitude": 19.1793493375,
        "likes": 159,
        "name": "Capgemini , Airoli",
        "categories": [
            "Business Service",
            "Organization"
        ],
        "checkins": 2505
    },
    "182302815151228": {
        "longitude": 72.9091829,
        "latitude": 19.08040773,
        "likes": 1274,
        "name": "Cinemax Odeon",
        "categories": [
            "Shopping/Retail"
        ],
        "checkins": 41264
    },
    "231839323598022": {
        "longitude": 72.9927282865,
        "latitude": 19.1850657458,
        "likes": 420,
        "name": "Shirdi,Nashik",
        "categories": [
            "Religious Center"
        ],
        "checkins": 8339
    },
    "164608673646335": {
        "longitude": 73.009105588544,
        "latitude": 19.125286293458,
        "likes": 1571,
        "name": "Reliance Corporate Park, Ghansoli",
        "categories": [
            "Business Center"
        ],
        "checkins": 30167
    },
    "379843108766698": {
        "longitude": 72.916305059681,
        "latitude": 19.099606354019,
        "likes": 1109,
        "name": "Big Cinemas , R City Mall, Ghatkopar",
        "categories": [
            "Diner"
        ],
        "checkins": 22690
    },
    "569162333199923": {
        "longitude": 73.007608383333,
        "latitude": 19.108803693333,
        "likes": 679,
        "name": "Koperkhairane",
        "categories": [
            "Public Services & Government",
            "Residence",
            "Real Estate"
        ],
        "checkins": 6107
    },
    "887850754562695": {
        "longitude": 72.9119926,
        "latitude": 19.0930901,
        "likes": 714,
        "name": "K.J Somaiya College of Science and Commerce",
        "categories": [
            "Bar",
            "College & University",
            "Education"
        ],
        "checkins": 4775
    },
    "721256194626135": {
        "longitude": 72.999587032121,
        "latitude": 19.151200229545,
        "likes": 1449,
        "name": "The Mint Leaf",
        "categories": [
            "Restaurant"
        ],
        "checkins": 7133
    },
    "349643701725317": {
        "longitude": 72.954134472699,
        "latitude": 19.18435277831,
        "likes": 312,
        "name": "Hotel Shilpa Restaurant, Check Naka, Mulund(W)",
        "categories": [
            "Bar & Grill"
        ],
        "checkins": 4735
    },
    "263150390370913": {
        "longitude": 73.007335428103,
        "latitude": 19.076208619419,
        "likes": 596,
        "name": "Apmc, Vashi",
        "categories": [
            "Fruit & Vegetable Store"
        ],
        "checkins": 5504
    },
    "1741166562784513": {
        "longitude": 72.912743,
        "latitude": 19.0917649,
        "likes": 34,
        "name": "Nityanand Nagar Ghatkopar",
        "categories": [
            "Local Business"
        ],
        "checkins": 3393
    },
    "383301678395610": {
        "longitude": 73.009490869362,
        "latitude": 19.125280002979,
        "likes": 247,
        "name": "RCP, Ghansoli",
        "categories": [
            "Workplace & Office",
            "Corporate Office",
            "Business"
        ],
        "checkins": 5298
    },
    "506506466081355": {
        "longitude": 72.98903053,
        "latitude": 19.17957143,
        "likes": 398,
        "name": "Igate Knowledge Park, Airoli",
        "categories": [
            "Workplace & Office",
            "Education"
        ],
        "checkins": 5866
    },
    "1768587163386004": {
        "longitude": 72.91734,
        "latitude": 19.1213799,
        "likes": 670,
        "name": "It's Fussion",
        "categories": [
            "Italian Restaurant",
            "Asian Fusion Restaurant"
        ],
        "checkins": 301
    },
    "1583324435260973": {
        "longitude": 72.99937165,
        "latitude": 19.11950385,
        "likes": 1307,
        "name": "Airoli - \u0910\u0930\u094b\u0932\u0940",
        "categories": [
            "Landmark & Historical Place",
            "Public Services & Government",
            "Business Center"
        ],
        "checkins": 7077
    },
    "407328512756097": {
        "longitude": 72.91367078,
        "latitude": 19.06285625,
        "likes": 23,
        "name": "Rbk Intetnational Academy",
        "categories": [
            "Education"
        ],
        "checkins": 3271
    },
    "213143015456809": {
        "longitude": 72.911571450511,
        "latitude": 19.119077866666,
        "likes": 1121,
        "name": "Galleria, Hiranandani Powai.",
        "categories": [
            "Landmark & Historical Place"
        ],
        "checkins": 21374
    },
    "147710168574322": {
        "longitude": 72.9258,
        "latitude": 19.0613,
        "likes": 118,
        "name": "Baiganwadi",
        "categories": [
            "Landmark & Historical Place",
            "Geographical feature"
        ],
        "checkins": 19606
    },
    "362064213998568": {
        "longitude": 72.987834966667,
        "latitude": 19.1457775,
        "likes": 76,
        "name": "Airoli Sec 14",
        "categories": [
            "Apartment & Condo Building"
        ],
        "checkins": 5452
    },
    "574769852557222": {
        "longitude": 73.000648638959,
        "latitude": 19.065777302449,
        "likes": 31366,
        "name": "Inorbit Vashi",
        "categories": [
            "Shopping Mall"
        ],
        "checkins": 118358
    },
    "304101666614965": {
        "longitude": 72.9985,
        "latitude": 19.07994,
        "likes": 51,
        "name": "Kesar tours & travels mumbai to rajasthan\"''",
        "categories": [
            "Tour Agency"
        ],
        "checkins": 1132
    },
    "204130976277803": {
        "longitude": 72.911388924231,
        "latitude": 19.118830450944,
        "likes": 361,
        "name": "KFC",
        "categories": [
            "Chicken Joint"
        ],
        "checkins": 3071
    },
    "456035477762975": {
        "longitude": 72.908262315978,
        "latitude": 19.121933467532,
        "likes": 97,
        "name": "Powai Lake View",
        "categories": [
            "Hotel & Lodging"
        ],
        "checkins": 4070
    },
    "890461564358129": {
        "longitude": 72.94077686,
        "latitude": 19.162903332,
        "likes": 37,
        "name": "Bhandup, mumbai",
        "categories": [
            "Home Improvement",
            "Beer Garden"
        ],
        "checkins": 5327
    },
    "428162587299631": {
        "longitude": 72.934288789928,
        "latitude": 19.11958618248,
        "likes": 36,
        "name": "Tagore Nagar",
        "categories": [
            "Telecommunication Company"
        ],
        "checkins": 2718
    },
    "318913098131473": {
        "longitude": 72.93058462,
        "latitude": 19.16037245,
        "likes": 94,
        "name": "bhandup Tulshetpada",
        "categories": [
            "Retirement & Assisted Living Facility"
        ],
        "checkins": 5740
    },
    "1003690469660840": {
        "longitude": 72.916638780076,
        "latitude": 19.099481007424,
        "likes": 3348,
        "name": "R-city Mall, Ghatkopar",
        "categories": [
            "Bar & Grill"
        ],
        "checkins": 54551
    },
    "264764060393283": {
        "longitude": 73.010129052737,
        "latitude": 19.101048873564,
        "likes": 655,
        "name": "Balaji Multiplex Koparkharine",
        "categories": [
            "Just For Fun"
        ],
        "checkins": 33932
    },
    "247098665369439": {
        "longitude": 72.9498,
        "latitude": 19.1792,
        "likes": 274959,
        "name": "Waman Hari Pethe Sons",
        "categories": [
            "Retail Company"
        ],
        "checkins": 314
    },
    "827513953999712": {
        "longitude": 72.95817732811,
        "latitude": 19.174411390672,
        "likes": 1838,
        "name": "The Laughter Chapter Cafe",
        "categories": [
            "Fast Food Restaurant",
            "Cafe"
        ],
        "checkins": 2755
    },
    "154338761666531": {
        "longitude": 72.944277074545,
        "latitude": 19.16677969,
        "likes": 100,
        "name": "Bombay Bites Mulund",
        "categories": [
            "Family Style Restaurant"
        ],
        "checkins": 1029
    },
    "216456068371684": {
        "longitude": 72.912815146028,
        "latitude": 19.123299189396,
        "likes": 482,
        "name": "Mantra's",
        "categories": [
            "Diner"
        ],
        "checkins": 12616
    },
    "392078600841049": {
        "longitude": 72.940822873077,
        "latitude": 19.163177807802,
        "likes": 772,
        "name": "SpiceLane Restaurant",
        "categories": [
            "Restaurant"
        ],
        "checkins": 5438
    },
    "167041100167851": {
        "longitude": 72.910378001682,
        "latitude": 19.12125230696,
        "likes": 828,
        "name": "Hiranandani, Powai",
        "categories": [
            "Hospital/Clinic"
        ],
        "checkins": 48288
    },
    "188710754568620": {
        "longitude": 73.010556,
        "latitude": 19.103056,
        "likes": 246,
        "name": "Kopar Khairane railway station",
        "categories": [
            "Railroad Company"
        ],
        "checkins": 5170
    },
    "437360169723191": {
        "longitude": 72.9375076,
        "latitude": 19.1562805,
        "likes": 13793,
        "name": "Tea Trails India",
        "categories": [
            "Tea Room",
            "Restaurant",
            "Food & Beverage Company"
        ],
        "checkins": 3238
    },
    "506984256073955": {
        "longitude": 72.922599193158,
        "latitude": 19.107000824211,
        "likes": 1244,
        "name": "Godrej Hillside Colony",
        "categories": [
            "Campus Building",
            "Public Services & Government"
        ],
        "checkins": 4912
    },
    "355549981185920": {
        "longitude": 72.9178613,
        "latitude": 19.099294,
        "likes": 26,
        "name": "Fort, Mumbai",
        "categories": [
            "Hotel & Lodging"
        ],
        "checkins": 3138
    },
    "379268115605595": {
        "longitude": 72.998989398205,
        "latitude": 19.065704799103,
        "likes": 2259,
        "name": "Fat Kid Deli",
        "categories": [
            "Fast Food Restaurant",
            "American Restaurant"
        ],
        "checkins": 3246
    },
    "492355220932171": {
        "longitude": 72.9896622,
        "latitude": 19.1628494,
        "likes": 38,
        "name": "Digha Navi Mumbai",
        "categories": [
            "Campus Building",
            "Other",
            "Residence"
        ],
        "checkins": 2428
    },
    "209053189144990": {
        "longitude": 72.930167975,
        "latitude": 19.14766182,
        "likes": 132,
        "name": "Shivaji Talav Bhandup",
        "categories": [
            "Local Business"
        ],
        "checkins": 3486
    },
    "203456239777394": {
        "longitude": 73.03234839,
        "latitude": 19.15823733,
        "likes": 109,
        "name": "Maharastra,Thane",
        "categories": [
            "Local Business"
        ],
        "checkins": 9335
    },
    "1625859090999959": {
        "longitude": 72.944031773376,
        "latitude": 19.177975217572,
        "likes": 3212,
        "name": "Jo's - caf\u00e9 lounge bar",
        "categories": [
            "Pub",
            "Restaurant"
        ],
        "checkins": 1852
    },
    "118310388275657": {
        "longitude": 72.95055,
        "latitude": 19.17435,
        "likes": 7178,
        "name": "Love & Latte",
        "categories": [
            "Coffee Shop"
        ],
        "checkins": 8624
    },
    "176622905818248": {
        "longitude": 72.924707726667,
        "latitude": 19.13084207,
        "likes": 108,
        "name": "N.C.H. Colony , Kanjurmarg",
        "categories": [
            "Apartment & Condo Building"
        ],
        "checkins": 3284
    },
    "210338335673040": {
        "longitude": 72.936879543379,
        "latitude": 19.14601399664,
        "likes": 1023,
        "name": "Dreams, The Mall",
        "categories": [
            "Shopping Mall"
        ],
        "checkins": 16520
    },
    "224990467566778": {
        "longitude": 72.938423629537,
        "latitude": 19.178665083611,
        "likes": 53,
        "name": "Malbar Hill Mulund",
        "categories": [
            "Residence"
        ],
        "checkins": 4229
    },
    "105779136421060": {
        "longitude": 72.90791,
        "latitude": 19.11991,
        "likes": 3945,
        "name": "Mirchi and Mime",
        "categories": [
            "Bar & Grill"
        ],
        "checkins": 13474
    },
    "202036656492624": {
        "longitude": 72.999146822001,
        "latitude": 19.067163787661,
        "likes": 1098,
        "name": "The Regenza by Tunga",
        "categories": [
            "Hotel"
        ],
        "checkins": 15245
    },
    "710590745754382": {
        "longitude": 72.99556606,
        "latitude": 19.067704904091,
        "likes": 353,
        "name": "Cidco Exhibition Centre,vashi,navimumbai",
        "categories": [
            "Performance & Sports Venue"
        ],
        "checkins": 11422
    },
    "148693495203435": {
        "longitude": 72.925965768249,
        "latitude": 19.12876146566,
        "likes": 1054,
        "name": "Huma Big Cinemas",
        "categories": [
            "Performance Art Theatre"
        ],
        "checkins": 39366
    },
    "232185936791474": {
        "longitude": 72.938914916588,
        "latitude": 19.180700445502,
        "likes": 175,
        "name": "Cypress Hills",
        "categories": [
            "Public Square / Plaza"
        ],
        "checkins": 3600
    },
    "455520887858490": {
        "longitude": 72.931269851799,
        "latitude": 19.141196084703,
        "likes": 1842,
        "name": "Cinepolis, Neptune Magnet Mall, Bhandup",
        "categories": [
            "Food & Beverage"
        ],
        "checkins": 42022
    },
    "257817617621452": {
        "longitude": 72.90856,
        "latitude": 19.08977,
        "likes": 171638,
        "name": "KidZania Mumbai",
        "categories": [
            "Landmark & Historical Place",
            "Education"
        ],
        "checkins": 30779
    },
    "419605784789047": {
        "longitude": 73.00005,
        "latitude": 19.075,
        "likes": 4111,
        "name": "VIKINGS",
        "categories": [
            "Lounge"
        ],
        "checkins": 7298
    },
    "379948482153073": {
        "longitude": 72.908285730213,
        "latitude": 19.11114525373,
        "likes": 3557,
        "name": "Rude Lounge  - Powai",
        "categories": [
            "Restaurant",
            "Lounge",
            "Pub"
        ],
        "checkins": 57850
    },
    "171854172872160": {
        "longitude": 72.971864378238,
        "latitude": 19.175056656292,
        "likes": 423,
        "name": "Hari Om Nagar",
        "categories": [
            "Recreation & Fitness Venue"
        ],
        "checkins": 11465
    },
    "671112249567181": {
        "longitude": 73.0003930375,
        "latitude": 19.1622229775,
        "likes": 376,
        "name": "L & T Infotech Mindspace, Airoli",
        "categories": [
            "Business Service"
        ],
        "checkins": 2974
    },
    "106935552790304": {
        "longitude": 72.950680028608,
        "latitude": 19.183664024937,
        "likes": 127,
        "name": "Timbuctoo Mulund R-Mall",
        "categories": [
            "Food & Beverage"
        ],
        "checkins": 4041
    },
    "1154765167885435": {
        "longitude": 72.92545,
        "latitude": 19.11066,
        "likes": 8594,
        "name": "Willis Towers Watson India",
        "categories": [
            "Insurance Company"
        ],
        "checkins": 1592
    },
    "1698577053689603": {
        "longitude": 73.01633,
        "latitude": 19.0963,
        "likes": 2069,
        "name": "Promotions Unlimited",
        "categories": [
            "Event",
            "Business Service",
            "Broadcasting & Media Production Company"
        ],
        "checkins": 1440
    },
    "125213724300234": {
        "longitude": 72.998200880667,
        "latitude": 19.151949003333,
        "likes": 138,
        "name": "Airoli, Sector-4",
        "categories": [
            "Business Center"
        ],
        "checkins": 8363
    },
    "559216350778897": {
        "longitude": 72.920342286667,
        "latitude": 19.07434315,
        "likes": 90,
        "name": "Ramabai Colony",
        "categories": [
            "Buddhist Temple"
        ],
        "checkins": 3243
    },
    "220047778381431": {
        "longitude": 72.909793,
        "latitude": 19.11631,
        "likes": 172,
        "name": "Starbucks India",
        "categories": [
            "Coffee Shop"
        ],
        "checkins": 2784
    },
    "374645869261219": {
        "longitude": 72.927154019412,
        "latitude": 19.151019198824,
        "likes": 81,
        "name": "Nardas Nagar Bhandup West.",
        "categories": [
            "Residence"
        ],
        "checkins": 3344
    },
    "143873549014197": {
        "longitude": 72.908291195833,
        "latitude": 19.076313041449,
        "likes": 491,
        "name": "Lavender Bough",
        "categories": [
            "Diner"
        ],
        "checkins": 9176
    },
    "532071460165664": {
        "longitude": 72.9722338,
        "latitude": 19.1864977,
        "likes": 185,
        "name": "Upvan",
        "categories": [
            "Lake"
        ],
        "checkins": 4290
    },
    "575686782451028": {
        "longitude": 73.043361,
        "latitude": 19.145898,
        "likes": 99,
        "name": "Shil Phata",
        "categories": [
            "Landmark & Historical Place"
        ],
        "checkins": 5785
    },
    "561051974030190": {
        "longitude": 72.9950099,
        "latitude": 19.06492,
        "likes": 220,
        "name": "CIDCO Exhibition Centre",
        "categories": [
            "Local Service"
        ],
        "checkins": 3492
    },
    "217863868278075": {
        "longitude": 72.9195847133,
        "latitude": 19.1284695095,
        "likes": 3670,
        "name": "Lake side IIT Powai",
        "categories": [
            "Landmark & Historical Place",
            "Travel & Transportation"
        ],
        "checkins": 17021
    },
    "118150781614103": {
        "longitude": 72.963261806076,
        "latitude": 19.172242417765,
        "likes": 146,
        "name": "Gavanpada",
        "categories": [
            "Local Business"
        ],
        "checkins": 4248
    },
    "165249916865198": {
        "longitude": 72.915610622203,
        "latitude": 19.129574905514,
        "likes": 370644,
        "name": "IIT Bombay",
        "categories": [
            "School",
            "University"
        ],
        "checkins": 244226
    },
    "394594867261085": {
        "longitude": 73.0009689,
        "latitude": 19.1414108,
        "likes": 292,
        "name": "Kamotha Navi Mumbai",
        "categories": [
            "Restaurant"
        ],
        "checkins": 18978
    },
    "118257508257875": {
        "longitude": 72.926443871294,
        "latitude": 19.120179743218,
        "likes": 34,
        "name": "HomeTown Mall, Vikhroli (W)",
        "categories": [
            "Shopping Mall"
        ],
        "checkins": 2639
    },
    "350550147268": {
        "longitude": 72.916737614441,
        "latitude": 19.099584766315,
        "likes": 84762,
        "name": "R City",
        "categories": [
            "Shopping Mall",
            "Lifestyle Services"
        ],
        "checkins": 117848
    },
    "203648933003928": {
        "longitude": 73.007901151914,
        "latitude": 19.068016549912,
        "likes": 252,
        "name": "Sector-17, Vashi Navi Mumbai",
        "categories": [
            "Food & Beverage"
        ],
        "checkins": 5958
    },
    "575472172478166": {
        "longitude": 72.908900167403,
        "latitude": 19.115918874493,
        "likes": 639,
        "name": "Theobroma Powai",
        "categories": [
            "Bakery"
        ],
        "checkins": 8126
    },
    "120992664674246": {
        "longitude": 72.931619481199,
        "latitude": 19.141684265444,
        "likes": 7835,
        "name": "Neptune Magnet Mall, Bhandup (W)",
        "categories": [
            "Dessert Shop"
        ],
        "checkins": 45776
    },
    "256673474377488": {
        "longitude": 72.9482391975,
        "latitude": 19.17407809,
        "likes": 360,
        "name": "Kalidas Ground, Mulund W",
        "categories": [
            "Auditorium"
        ],
        "checkins": 8825
    },
    "165373433517915": {
        "longitude": 73.008173,
        "latitude": 19.085750795,
        "likes": 780,
        "name": "Fortune Select Exotica,Vashi, Navi Mumbai, India",
        "categories": [
            "Hotel"
        ],
        "checkins": 11802
    },
    "404039419697176": {
        "longitude": 73.026311317144,
        "latitude": 19.042049518842,
        "likes": 33776,
        "name": "D Y Patil Sports Stadium",
        "categories": [
            "Stadium, Arena & Sports Venue",
            "Sports Club"
        ],
        "checkins": 113754
    },
    "296967813694073": {
        "longitude": 72.92969065875,
        "latitude": 19.15560183875,
        "likes": 90,
        "name": "Bhandup Tembipada",
        "categories": [
            "Other"
        ],
        "checkins": 6941
    },
    "205890249436357": {
        "longitude": 73.006081394119,
        "latitude": 19.124666947263,
        "likes": 3007,
        "name": "Reliance Corporate Park",
        "categories": [
            "Corporate Office",
            "Engineering Service"
        ],
        "checkins": 23742
    },
    "321747621264443": {
        "longitude": 72.9374182,
        "latitude": 19.1663121,
        "likes": 173,
        "name": "Pvr Cinema, Nirmal Lifestyle Mall, Mulund West, Mumbai",
        "categories": [
            "Movie Theater"
        ],
        "checkins": 8581
    },
    "500621663336731": {
        "longitude": 72.939647935,
        "latitude": 19.1377455525,
        "likes": 214,
        "name": "Bhandup Kanjurmarg east",
        "categories": [
            "Education"
        ],
        "checkins": 5330
    },
    "402049259924658": {
        "longitude": 72.9043988292,
        "latitude": 19.047088375,
        "likes": 4756,
        "name": "Adlabs Imagica",
        "categories": [
            "Water Park"
        ],
        "checkins": 9378
    },
    "928089273933260": {
        "longitude": 72.992842197418,
        "latitude": 19.067776197615,
        "likes": 5741,
        "name": "Mojo's Bistro, Vashi",
        "categories": [
            "Lounge",
            "Cafe",
            "Bar & Grill"
        ],
        "checkins": 8998
    },
    "171563799554270": {
        "longitude": 72.916535734374,
        "latitude": 19.099456573382,
        "likes": 1420,
        "name": "RCity",
        "categories": [
            "Performance Art Theatre"
        ],
        "checkins": 13423
    },
    "291877764492531": {
        "longitude": 72.9116065,
        "latitude": 19.1185169,
        "likes": 37,
        "name": "Maharaja Bhog Powai Hiranandani",
        "categories": [
            "Indian Restaurant"
        ],
        "checkins": 1324
    },
    "899151933509724": {
        "longitude": 73.0040436,
        "latitude": 19.1329498,
        "likes": 247,
        "name": "\u0939\u093f\u0902\u0926\u0941\u0938\u094d\u0924\u093e\u0928 \u092e\u0947\u0930\u0940 \u091c\u093e\u0928",
        "categories": [
            "Media/News Company"
        ],
        "checkins": 2438
    },
    "1130484207014244": {
        "longitude": 72.93925,
        "latitude": 19.1215,
        "likes": 16086,
        "name": "Red Carpet Wax Museum",
        "categories": [
            "Other",
            "Museum"
        ],
        "checkins": 321
    },
    "477436345610413": {
        "longitude": 72.945673223628,
        "latitude": 19.183221060969,
        "likes": 2034,
        "name": "Tattoos JZZZ INK - JOE",
        "categories": [
            "Nail Salon",
            "Tattoo & Piercing Shop",
            "Arts & Entertainment"
        ],
        "checkins": 3244
    },
    "520570034785771": {
        "longitude": 72.92545,
        "latitude": 19.11066,
        "likes": 1094,
        "name": "247 Park",
        "categories": [
            "Business Center",
            "Commercial Real Estate Agency"
        ],
        "checkins": 172
    },
    "266206826744256": {
        "longitude": 72.914138861678,
        "latitude": 19.079807760928,
        "likes": 483,
        "name": "Police ground,Ghatkopar!",
        "categories": [
            "Recreation & Fitness"
        ],
        "checkins": 11055
    },
    "1724596987826075": {
        "longitude": 72.990642786026,
        "latitude": 19.143663077804,
        "likes": 1222,
        "name": "M'eating Square",
        "categories": [
            "Family Style Restaurant",
            "Lounge"
        ],
        "checkins": 562
    },
    "813414985336868": {
        "longitude": 72.9766929,
        "latitude": 19.1864228,
        "likes": 101,
        "name": "Kothaligad",
        "categories": [
            "Mountain"
        ],
        "checkins": 3378
    },
    "204442079589635": {
        "longitude": 72.908746963906,
        "latitude": 19.116244747667,
        "likes": 282,
        "name": "Papa John's Pizza, Powai",
        "categories": [
            "Pizza Place"
        ],
        "checkins": 6151
    },
    "121343497975840": {
        "longitude": 72.95132572293,
        "latitude": 19.183765452676,
        "likes": 435,
        "name": "Poptates,R mall,mulund.( West)",
        "categories": [
            "Asian Fusion Restaurant"
        ],
        "checkins": 6995
    },
    "100324113458498": {
        "longitude": 72.930101924068,
        "latitude": 19.129151909093,
        "likes": 744,
        "name": "HDFC Bank Limited, i-Think Lodha, Kanjurmarg (E)",
        "categories": [
            "Commercial Bank"
        ],
        "checkins": 4768
    },
    "522290054529484": {
        "longitude": 72.936919286841,
        "latitude": 19.142181878732,
        "likes": 3476,
        "name": "Shree Siddhivinayak Mitra Mandal",
        "categories": [
            "Religious Organization"
        ],
        "checkins": 11499
    },
    "118800131527466": {
        "longitude": 72.937738114802,
        "latitude": 19.151464623026,
        "likes": 79,
        "name": "Village Road",
        "categories": [
            "Other"
        ],
        "checkins": 3695
    },
    "459735300797506": {
        "longitude": 72.959742508571,
        "latitude": 19.186058029259,
        "likes": 30351,
        "name": "TipTop Plaza",
        "categories": [
            "Hotel",
            "University"
        ],
        "checkins": 23681
    },
    "176799472496391": {
        "longitude": 72.9089288,
        "latitude": 19.1160445,
        "likes": 628,
        "name": "Haagen Dazs Hiranandani Powai",
        "categories": [
            "Ice Cream Shop"
        ],
        "checkins": 12082
    },
    "104064782962280": {
        "longitude": 72.995836,
        "latitude": 19.160046,
        "likes": 2159,
        "name": "Datta Meghe College of Engineering",
        "categories": [
            "College & University",
            "Education"
        ],
        "checkins": 6256
    },
    "436677849684260": {
        "longitude": 73.011922696882,
        "latitude": 19.142337581923,
        "likes": 73,
        "name": "Rabale Navi Mumbai",
        "categories": [
            "Workplace & Office",
            "Swimwear Store",
            "Shopping/Retail"
        ],
        "checkins": 7725
    },
    "281229698600546": {
        "longitude": 72.9566803,
        "latitude": 19.1753292,
        "likes": 6924,
        "name": "Vibhutee Designer Sarees Studio",
        "categories": [
            "Women's Clothing Store",
            "Textile Company",
            "Shopping/Retail"
        ],
        "checkins": 190
    },
    "107839552892366": {
        "longitude": 72.917904583333,
        "latitude": 19.112886544516,
        "likes": 3795,
        "name": "Homely",
        "categories": [
            "Food & Beverage Company"
        ],
        "checkins": 100
    },
    "139873999360691": {
        "longitude": 72.957974993333,
        "latitude": 19.17489914,
        "likes": 3922,
        "name": "Mulund College of Commerce, Mulund",
        "categories": [
            "University"
        ],
        "checkins": 5730
    },
    "1395687500664290": {
        "longitude": 73.01413127,
        "latitude": 19.07116713,
        "likes": 24,
        "name": "Turbhe Gaon",
        "categories": [
            "Residence",
            "Oncologist"
        ],
        "checkins": 2034
    },
    "708870212566641": {
        "longitude": 72.938656881452,
        "latitude": 19.11445498358,
        "likes": 35,
        "name": "Kannamwar Nagar No 1",
        "categories": [
            "Medical Center",
            "Other",
            "Residence"
        ],
        "checkins": 3717
    },
    "319736024743967": {
        "longitude": 73.0224604,
        "latitude": 19.17706,
        "likes": 63,
        "name": "Sanjay Nagar",
        "categories": [
            "Local Business"
        ],
        "checkins": 2942
    },
    "181006065259598": {
        "longitude": 72.9913025,
        "latitude": 19.1594105,
        "likes": 2696,
        "name": "JVM's Mehta College - Airoli",
        "categories": [
            "School",
            "College & University"
        ],
        "checkins": 2719
    },
    "206029092799440": {
        "longitude": 72.9067,
        "latitude": 19.08518,
        "likes": 8833,
        "name": "Ramniranjan Jhunjhunwala College",
        "categories": [
            "Education",
            "College & University"
        ],
        "checkins": 8911
    },
    "139337499556902": {
        "longitude": 72.909292,
        "latitude": 19.111889479682,
        "likes": 23069,
        "name": "Breeze - Powai",
        "categories": [
            "Tapas Bar & Restaurant",
            "Lounge"
        ],
        "checkins": 52636
    },
    "107791639250569": {
        "longitude": 73.026938,
        "latitude": 19.11776,
        "likes": 84,
        "name": "Mahape",
        "categories": [
            "Business Center",
            "Landmark & Historical Place"
        ],
        "checkins": 4156
    },
    "1119664534761783": {
        "longitude": 72.90825,
        "latitude": 19.11553,
        "likes": 56,
        "name": "Chaayos",
        "categories": [
            "Tea Room"
        ],
        "checkins": 970
    },
    "156717007849379": {
        "longitude": 72.937317577178,
        "latitude": 19.166492647735,
        "likes": 122,
        "name": "PVR cinemas, Nirmal Lifestyle, Mulund",
        "categories": [
            "Movie Theater"
        ],
        "checkins": 5496
    },
    "181704938577516": {
        "longitude": 72.99884,
        "latitude": 19.06858,
        "likes": 3908,
        "name": "Mini Sea Shore, Vashi",
        "categories": [
            "Lake"
        ],
        "checkins": 51641
    },
    "1579952492331614": {
        "longitude": 72.91797,
        "latitude": 19.09253,
        "likes": 14,
        "name": "\u0932\u0915\u094d\u0937\u094d\u092e\u0940\u092c\u093e\u0917,\u0918\u093e\u091f\u0915\u094b\u092a\u0930 - \u092a\u0942\u0930\u094d\u0935",
        "categories": [
            "Local Business"
        ],
        "checkins": 2329
    },
    "832616450199437": {
        "longitude": 72.95055,
        "latitude": 19.17435,
        "likes": 1579,
        "name": "Tea and Conversations",
        "categories": [
            "Cafe",
            "Restaurant"
        ],
        "checkins": 2157
    },
    "492309727625147": {
        "longitude": 72.96865,
        "latitude": 19.17419,
        "likes": 208,
        "name": "\u092e\u0940.\u092e\u0930\u093e\u0920\u093e",
        "categories": [
            "Just For Fun",
            "Arts & Entertainment"
        ],
        "checkins": 417
    },
    "142206802597664": {
        "longitude": 72.93661817,
        "latitude": 19.13754811,
        "likes": 75,
        "name": "Anil Maharaj Astro-Divine World, Bhandup E Mumbai",
        "categories": [
            "Local Business"
        ],
        "checkins": 11584
    },
    "328930140503405": {
        "longitude": 72.934240442393,
        "latitude": 19.124619538656,
        "likes": 1764,
        "name": "Hiranandani Gardens, Powai",
        "categories": [
            "Apartment & Condo Building"
        ],
        "checkins": 10999
    },
    "208175262553759": {
        "longitude": 72.937266225478,
        "latitude": 19.166510460697,
        "likes": 839,
        "name": "Pvr, Nirmal Lifestyles, Mulund",
        "categories": [
            "Movie Theater"
        ],
        "checkins": 24635
    },
    "1511278215795377": {
        "longitude": 72.995269295238,
        "latitude": 19.065841737143,
        "likes": 441,
        "name": "Cidco Exhibition Centre",
        "categories": [
            "Convention Center"
        ],
        "checkins": 6587
    },
    "916883598383542": {
        "longitude": 72.911364157526,
        "latitude": 19.118933168093,
        "likes": 404,
        "name": "Hoppipola,powai",
        "categories": [
            "Food Wholesaler"
        ],
        "checkins": 14038
    },
    "538270942880151": {
        "longitude": 73.012871,
        "latitude": 19.114196,
        "likes": 330,
        "name": "Country Inn & Suites By Carlson Navi Mumbai Mahape",
        "categories": [
            "Hotel"
        ],
        "checkins": 8498
    },
    "111186702294391": {
        "longitude": 72.9178696,
        "latitude": 19.1109409,
        "likes": 3418,
        "name": "Timbuctoo",
        "categories": [
            "Lounge",
            "Italian Restaurant",
            "Cafe"
        ],
        "checkins": 32157
    },
    "199115230186937": {
        "longitude": 72.908847763668,
        "latitude": 19.111773683686,
        "likes": 334,
        "name": "Supreme Business Park",
        "categories": [
            "Business Center"
        ],
        "checkins": 8122
    },
    "316396951745631": {
        "longitude": 72.965818665693,
        "latitude": 19.180030426058,
        "likes": 73,
        "name": "Kopri Anand Nagar Thane East",
        "categories": [
            "Local Business"
        ],
        "checkins": 3848
    },
    "147080008734326": {
        "longitude": 72.958891708861,
        "latitude": 19.172723481013,
        "likes": 298,
        "name": "Chintamani Deshmukh Garden, Mulund (E)",
        "categories": [
            "Garden Center"
        ],
        "checkins": 4769
    },
    "229787680516588": {
        "longitude": 72.9117547497,
        "latitude": 19.1186632503,
        "likes": 322,
        "name": "Le Pain Quotidien, Powai",
        "categories": [
            "French Restaurant"
        ],
        "checkins": 6089
    },
    "429764857061873": {
        "longitude": 72.931607603507,
        "latitude": 19.125057484548,
        "likes": 132,
        "name": "Renaissance Hotel, Marriott , Powai",
        "categories": [
            "Hotel"
        ],
        "checkins": 3250
    },
    "696323010490263": {
        "longitude": 72.949706628333,
        "latitude": 19.179275453333,
        "likes": 101,
        "name": "Sabarmati Riverfront Garden",
        "categories": [
            "Park"
        ],
        "checkins": 3856
    },
    "367926313269870": {
        "longitude": 73.012497,
        "latitude": 19.074842,
        "likes": 446,
        "name": "Vashi (New mumbai) APMC fruit market",
        "categories": [
            "Grocery Store"
        ],
        "checkins": 13563
    },
    "126048270784305": {
        "longitude": 72.93454,
        "latitude": 19.11372,
        "likes": 176151,
        "name": "Ginger",
        "categories": [
            "Hotel",
            "Travel Company"
        ],
        "checkins": 14716
    },
    "207683402600171": {
        "longitude": 73.017263815482,
        "latitude": 19.108781279034,
        "likes": 851,
        "name": "Ramada Hotel",
        "categories": [
            "Hotel"
        ],
        "checkins": 15876
    },
    "104963316235131": {
        "longitude": 72.910405154132,
        "latitude": 19.113964119351,
        "likes": 212,
        "name": "Hiranandani Avalon",
        "categories": [
            "Apartment & Condo Building"
        ],
        "checkins": 5296
    },
    "120055394691686": {
        "longitude": 72.9184036,
        "latitude": 19.1202202,
        "likes": 307572,
        "name": "Mood Indigo, IIT Bombay",
        "categories": [
            "University",
            "Non-Profit Organization",
            "College & University"
        ],
        "checkins": 4673
    },
    "576627019079864": {
        "longitude": 72.906831415,
        "latitude": 19.115173315,
        "likes": 2882,
        "name": "Mahuli Fort Trek",
        "categories": [
            "Mountain",
            "Recreation & Fitness"
        ],
        "checkins": 4956
    },
    "153398218071528": {
        "longitude": 72.909430489605,
        "latitude": 19.116223003317,
        "likes": 349,
        "name": "Chili's, Hiranandani, Powai",
        "categories": [
            "Tex-Mex Restaurant"
        ],
        "checkins": 9714
    },
    "145855298572": {
        "longitude": 72.90876,
        "latitude": 19.08543,
        "likes": 5472,
        "name": "Ghatkopar",
        "categories": [
            "Township"
        ],
        "checkins": 4100
    },
    "162410457155555": {
        "longitude": 72.970284151952,
        "latitude": 19.176301523101,
        "likes": 471,
        "name": "Kopri Bara Banglow Thane East",
        "categories": [
            "Bar",
            "Residence"
        ],
        "checkins": 13255
    },
    "207442842667259": {
        "longitude": 72.95666745,
        "latitude": 19.17181413,
        "likes": 164,
        "name": "Tajhotel,mumbai.",
        "categories": [
            "Local Business"
        ],
        "checkins": 3587
    },
    "245077785604331": {
        "longitude": 72.90512,
        "latitude": 19.1197899,
        "likes": 406514,
        "name": "Techfest, IIT Bombay",
        "categories": [
            "College & University",
            "Non-Profit Organization"
        ],
        "checkins": 3723
    },
    "726391544079047": {
        "longitude": 72.93469,
        "latitude": 19.17338,
        "likes": 30,
        "name": "Pawai Hiranandani Supreme City",
        "categories": [
            "Science & Engineering",
            "Yoga Studio"
        ],
        "checkins": 2544
    },
    "838593582865148": {
        "longitude": 72.96008,
        "latitude": 19.12749,
        "likes": 15486,
        "name": "World Of My Choice",
        "categories": [
            "Tour Agency",
            "Photographer"
        ],
        "checkins": 215
    },
    "1712172465667097": {
        "longitude": 72.908443657778,
        "latitude": 19.085539273333,
        "likes": 23,
        "name": "Inox Neelyog, Ghatkopar",
        "categories": [
            "Movie Theater"
        ],
        "checkins": 3912
    },
    "321256144647962": {
        "longitude": 73.01011190159,
        "latitude": 19.100956575367,
        "likes": 170,
        "name": "Mc donalds,koperkhairne",
        "categories": [
            "Cafe"
        ],
        "checkins": 6629
    },
    "141587522577567": {
        "longitude": 72.997163670202,
        "latitude": 19.064163610179,
        "likes": 3853,
        "name": "Raghuleela Mall, Vashi",
        "categories": [
            "Restaurant"
        ],
        "checkins": 68883
    },
    "132928766867211": {
        "longitude": 72.956731459047,
        "latitude": 19.173257066233,
        "likes": 242,
        "name": "Mcdonalds, Mulund",
        "categories": [
            "Fast Food Restaurant"
        ],
        "checkins": 5146
    },
    "267575533269226": {
        "longitude": 72.95678802,
        "latitude": 19.16681153,
        "likes": 538,
        "name": "Kurla,Mumbai,Maharashtra",
        "categories": [
            "Landmark & Historical Place"
        ],
        "checkins": 1973
    },
    "430097103697532": {
        "longitude": 72.975613793506,
        "latitude": 19.186023254647,
        "likes": 760,
        "name": "Mumbai-CST Station",
        "categories": [
            "Transportation Service"
        ],
        "checkins": 24107
    },
    "351771058286337": {
        "longitude": 72.9114449,
        "latitude": 19.0976754,
        "likes": 112,
        "name": "Pankheshah Baba Dargah, Ghatkopar",
        "categories": [
            "Mosque"
        ],
        "checkins": 7460
    },
    "668578396508737": {
        "longitude": 72.996922058077,
        "latitude": 19.064243619964,
        "likes": 293,
        "name": "Inox Raghuleela Vashi",
        "categories": [
            "Performance Art Theatre"
        ],
        "checkins": 19506
    },
    "947472288631596": {
        "longitude": 72.946389,
        "latitude": 19.154722,
        "likes": 18,
        "name": "Nahur",
        "categories": [
            "Amusement & Theme Park",
            "Home Improvement"
        ],
        "checkins": 2459
    },
    "1082234095154647": {
        "longitude": 72.95055,
        "latitude": 19.17435,
        "likes": 47,
        "name": "OM Foundation",
        "categories": [
            "Charity Organization"
        ],
        "checkins": 1399
    },
    "224259047709782": {
        "longitude": 73.0040436,
        "latitude": 19.1329498,
        "likes": 2668,
        "name": "Country Inn & Suites By Carlson, Navi Mumbai",
        "categories": [
            "Hotel Resort",
            "Spa"
        ],
        "checkins": 5464
    },
    "200304376750143": {
        "longitude": 72.95212632,
        "latitude": 19.16526633,
        "likes": 626,
        "name": "Cyprus Mulund West",
        "categories": [
            "Other"
        ],
        "checkins": 5840
    },
    "263148763752869": {
        "longitude": 72.9988,
        "latitude": 19.0632,
        "likes": 236,
        "name": "Vashi railway station",
        "categories": [
            "Landmark & Historical Place"
        ],
        "checkins": 6560
    },
    "700283866713829": {
        "longitude": 72.91313,
        "latitude": 19.12203,
        "likes": 3499,
        "name": "Hungry Head",
        "categories": [
            "Fast Food Restaurant"
        ],
        "checkins": 1512
    },
    "286579198088344": {
        "longitude": 73.023883399016,
        "latitude": 19.186502122611,
        "likes": 180,
        "name": "Bombay Colony, Mumbra.",
        "categories": [
            "Local Business"
        ],
        "checkins": 7053
    },
    "1409416939379159": {
        "longitude": 73.023602105677,
        "latitude": 19.184292020885,
        "likes": 90,
        "name": "Anand Koliwada Mumbra",
        "categories": [
            "Apartment & Condo Building"
        ],
        "checkins": 12666
    },
    "110488145697307": {
        "longitude": 72.952026430473,
        "latitude": 19.183695386386,
        "likes": 2182,
        "name": "Big Cinemas R Mall Mulund (West)",
        "categories": [
            "Performance Art Theatre"
        ],
        "checkins": 59439
    },
    "114270758583301": {
        "longitude": 73.0073,
        "latitude": 19.10565,
        "likes": 1794,
        "name": "Lokmanya Tilak College of Engineering",
        "categories": [
            "Academic Camp"
        ],
        "checkins": 8348
    },
    "133225600114984": {
        "longitude": 72.936590197765,
        "latitude": 19.145717149697,
        "likes": 579,
        "name": "Dream Mall Bhandup",
        "categories": [
            "Shopping Mall"
        ],
        "checkins": 9726
    },
    "137750259582504": {
        "longitude": 72.916563636667,
        "latitude": 19.13047553,
        "likes": 178679,
        "name": "E-Cell, IIT Bombay",
        "categories": [
            "Non-Profit Organization",
            "College & University",
            "Event"
        ],
        "checkins": 1804
    },
    "312980355458144": {
        "longitude": 72.917050050786,
        "latitude": 19.106377261582,
        "likes": 71,
        "name": "Poptate Vikroli",
        "categories": [
            "Continental Restaurant"
        ],
        "checkins": 4392
    },
    "267793216646522": {
        "longitude": 72.95702,
        "latitude": 19.17243,
        "likes": 1192,
        "name": "Thane railway station",
        "categories": [
            "Landmark & Historical Place"
        ],
        "checkins": 33634
    },
    "873671385980324": {
        "longitude": 72.916297149743,
        "latitude": 19.100028753688,
        "likes": 217,
        "name": "The United Sports Bar and Grill",
        "categories": [
            "Sports Bar"
        ],
        "checkins": 5899
    },
    "152228041641435": {
        "longitude": 72.909345063333,
        "latitude": 19.116160913333,
        "likes": 41,
        "name": "Powai Garden",
        "categories": [
            "Park"
        ],
        "checkins": 2526
    },
    "158537570891713": {
        "longitude": 72.999616064924,
        "latitude": 19.066054707558,
        "likes": 10144,
        "name": "Four Points By Sheraton Navi Mumbai, Vashi",
        "categories": [
            "Hotel"
        ],
        "checkins": 21783
    },
    "137472419609546": {
        "longitude": 73.02500833,
        "latitude": 19.16750556,
        "likes": 459,
        "name": "Kausa",
        "categories": [
            "Landmark & Historical Place"
        ],
        "checkins": 13243
    },
    "379124788844980": {
        "longitude": 72.916463232576,
        "latitude": 19.099532232121,
        "likes": 115,
        "name": "Urban Tadka R City Mall Mumbai",
        "categories": [
            "Indian Restaurant"
        ],
        "checkins": 7567
    },
    "1404628663087018": {
        "longitude": 72.922328175279,
        "latitude": 19.093899501752,
        "likes": 223,
        "name": "Godrej One",
        "categories": [
            "Workplace & Office"
        ],
        "checkins": 4152
    },
    "296377727152836": {
        "longitude": 72.99702,
        "latitude": 19.18081,
        "likes": 14,
        "name": "Virar Chandansar",
        "categories": [
            "Religious Center"
        ],
        "checkins": 2391
    },
    "1627801624149092": {
        "longitude": 72.97443,
        "latitude": 19.17817,
        "likes": 204,
        "name": "Kopri",
        "categories": [
            "Real Estate"
        ],
        "checkins": 2556
    },
    "269764719765065": {
        "longitude": 72.965132998667,
        "latitude": 19.166098187333,
        "likes": 180,
        "name": "Mulund East Navghar Road",
        "categories": [
            "School"
        ],
        "checkins": 7731
    },
    "124804820935993": {
        "longitude": 72.943733525596,
        "latitude": 19.17557911174,
        "likes": 862,
        "name": "Woodland Retreat",
        "categories": [
            "Vegetarian/Vegan Restaurant"
        ],
        "checkins": 4330
    },
    "123112394426256": {
        "longitude": 72.951617042173,
        "latitude": 19.183938305796,
        "likes": 990,
        "name": "Pizza Hut R-Mall Mulund(West), Mumbai India",
        "categories": [
            "Pizza Place"
        ],
        "checkins": 8811
    },
    "354233314658846": {
        "longitude": 73.001618442036,
        "latitude": 19.162614532737,
        "likes": 956,
        "name": "Mindspace,airoli",
        "categories": [
            "Business Service"
        ],
        "checkins": 23573
    },
    "759620984103638": {
        "longitude": 73.000824452025,
        "latitude": 19.065752686582,
        "likes": 99,
        "name": "British Brewing Company, Vashi",
        "categories": [
            "Food & Beverage"
        ],
        "checkins": 3257
    },
    "111942252155016": {
        "longitude": 72.97,
        "latitude": 19.04,
        "likes": 238,
        "name": "Vashi Bridge",
        "categories": [
            "Bridge"
        ],
        "checkins": 6088
    },
    "328346947310682": {
        "longitude": 72.937684597317,
        "latitude": 19.154204492927,
        "likes": 123,
        "name": "Mitran Da Dhaba, Bhandup West.",
        "categories": [
            "Indian Restaurant"
        ],
        "checkins": 3101
    },
    "182806228434260": {
        "longitude": 72.908637171692,
        "latitude": 19.085427540736,
        "likes": 1016,
        "name": "FAME Neelyog, Ghatkopar",
        "categories": [
            "Transportation Hub"
        ],
        "checkins": 25957
    },
    "1541624616075218": {
        "longitude": 72.99098712,
        "latitude": 19.146945835,
        "likes": 63,
        "name": "Airoli Sector 9",
        "categories": [
            "Community Organization",
            "Other"
        ],
        "checkins": 4619
    },
    "489205121184748": {
        "longitude": 73.003874,
        "latitude": 19.10227535,
        "likes": 150,
        "name": "Nisarg Udyan",
        "categories": [
            "Park",
            "Pet"
        ],
        "checkins": 3610
    },
    "112763822134796": {
        "longitude": 73.016298949911,
        "latitude": 19.107104574768,
        "likes": 7036,
        "name": "Dhirubhai Ambani Knowledge City - DAKC",
        "categories": [
            "Workplace & Office",
            "Corporate Office",
            "Business Center"
        ],
        "checkins": 7597
    },
    "1464777847175735": {
        "longitude": 72.90908,
        "latitude": 19.08416,
        "likes": 33,
        "name": "Inox Ghatkopar",
        "categories": [
            "Movie Theater",
            "Performance Art Theatre"
        ],
        "checkins": 3000
    }
}